[{"fields": {"longitude_api": -97.016947, "state_province": "CA", "city_town": "Mountain View", "latitude_api": 39.338543, "user_id": 2}, "model": "user.useraddress", "pk": 2}, {"fields": {"longitude_api": -80.223605, "state_province": "MN", "city_town": "Apple Valley", "latitude_api": 39.276383, "user_id": 3}, "model": "user.useraddress", "pk": 3}, {"fields": {"longitude_api": -122.686153, "state_province": "OR", "city_town": "Portland", "latitude_api": 45.53055, "user_id": 1}, "model": "user.useraddress", "pk": 1}, {"fields": {"longitude_api": -81.631496, "state_province": "FL", "city_town": "Jacksonville", "latitude_api": 30.306437, "user_id": 1}, "model": "user.useraddress", "pk": 4}, {"fields": {"longitude_api": -81.125703, "state_province": "CO", "city_town": "Grand Junction", "latitude_api": 35.614511, "user_id": 7}, "model": "user.useraddress", "pk": 5}, {"fields": {"longitude_api": -122.382487, "state_province": "CA", "city_town": "Oakland", "latitude_api": 37.810064, "user_id": 6}, "model": "user.useraddress", "pk": 6}, {"fields": {"longitude_api": -98.036862, "state_province": "ND", "city_town": "Verona", "latitude_api": 46.363996, "user_id": 5}, "model": "user.useraddress", "pk": 7}]