[{"pk": 2, "fields": {"longitude_api": -97.016947, "latitude_api": 39.338543, "address_category_id": 1, "user_id": 2, "city_town": "Mountain View", "state_province": "CA"}, "model": "user.useraddress"}, {"pk": 3, "fields": {"longitude_api": -80.223605, "latitude_api": 39.276383, "address_category_id": 1, "user_id": 3, "city_town": "Apple Valley", "state_province": "MN"}, "model": "user.useraddress"}, {"pk": 1, "fields": {"longitude_api": -122.686153, "latitude_api": 45.53055, "address_category_id": 3, "user_id": 1, "city_town": "Portland", "state_province": "OR"}, "model": "user.useraddress"}, {"pk": 4, "fields": {"longitude_api": -81.631496, "latitude_api": 30.306437, "address_category_id": 1, "user_id": 1, "city_town": "Jacksonville", "state_province": "FL"}, "model": "user.useraddress"}, {"pk": 5, "fields": {"longitude_api": -81.125703, "latitude_api": 35.614511, "address_category_id": 1, "user_id": 7, "city_town": "Grand Junction", "state_province": "CO"}, "model": "user.useraddress"}, {"pk": 6, "fields": {"longitude_api": -122.382487, "latitude_api": 37.810064, "address_category_id": 1, "user_id": 6, "city_town": "Oakland", "state_province": "CA"}, "model": "user.useraddress"}, {"pk": 7, "fields": {"longitude_api": -98.036862, "latitude_api": 46.363996, "address_category_id": 1, "user_id": 5, "city_town": "Verona", "state_province": "ND"}, "model": "user.useraddress"}]