[{"model": "user.useraddress", "pk": 7, "fields": {"address_category_id": 1, "longitude_api": -98.036862, "city_town": "Verona", "latitude_api": 46.363996, "user_id": 5, "state_province": "ND"}}, {"model": "user.useraddress", "pk": 6, "fields": {"address_category_id": 1, "longitude_api": -122.382487, "city_town": "Oakland", "latitude_api": 37.810064, "user_id": 6, "state_province": "CA"}}, {"model": "user.useraddress", "pk": 5, "fields": {"address_category_id": 1, "longitude_api": -81.125703, "city_town": "Grand Junction", "latitude_api": 35.614511, "user_id": 7, "state_province": "CO"}}, {"model": "user.useraddress", "pk": 4, "fields": {"address_category_id": 1, "longitude_api": -81.631496, "city_town": "Jacksonville", "latitude_api": 30.306437, "user_id": 1, "state_province": "FL"}}, {"model": "user.useraddress", "pk": 3, "fields": {"address_category_id": 1, "longitude_api": -80.223605, "city_town": "Apple Valley", "latitude_api": 39.276383, "user_id": 3, "state_province": "MN"}}, {"model": "user.useraddress", "pk": 2, "fields": {"address_category_id": 1, "longitude_api": -97.016947, "city_town": "Mountain View", "latitude_api": 39.338543, "user_id": 2, "state_province": "CA"}}, {"model": "user.useraddress", "pk": 1, "fields": {"address_category_id": 3, "longitude_api": -122.686153, "city_town": "Portland", "latitude_api": 45.53055, "user_id": 1, "state_province": "OR"}}]