[{"pk": 2, "fields": {"longitude_api": -97.016947, "latitude_api": 39.338543, "city_town": "Mountain View", "user_id": 2, "state_province": "CA"}, "model": "user.useraddress"}, {"pk": 3, "fields": {"longitude_api": -80.223605, "latitude_api": 39.276383, "city_town": "Apple Valley", "user_id": 3, "state_province": "MN"}, "model": "user.useraddress"}, {"pk": 1, "fields": {"longitude_api": -122.686153, "latitude_api": 45.53055, "city_town": "Portland", "user_id": 1, "state_province": "OR"}, "model": "user.useraddress"}, {"pk": 4, "fields": {"longitude_api": -81.631496, "latitude_api": 30.306437, "city_town": "Jacksonville", "user_id": 1, "state_province": "FL"}, "model": "user.useraddress"}, {"pk": 5, "fields": {"longitude_api": -81.125703, "latitude_api": 35.614511, "city_town": "Grand Junction", "user_id": 7, "state_province": "CO"}, "model": "user.useraddress"}, {"pk": 6, "fields": {"longitude_api": -122.382487, "latitude_api": 37.810064, "city_town": "Oakland", "user_id": 6, "state_province": "CA"}, "model": "user.useraddress"}]